City_ID,City,Lat,Lng,Max Temp,Humidity,Cloudiness,Wind Speed,Country,Date,Current Description
0,Puerto Ayora,-0.7393,-90.3518,80.56,85,26,8.01,EC,2021-06-06 16:21:37,scattered clouds
1,Talas,38.6908,35.5538,66.87,32,20,7.31,TR,2021-06-06 16:25:57,few clouds
2,Krasnoselkup,65.7,82.4667,39.33,65,97,11.61,RU,2021-06-06 16:25:59,overcast clouds
3,Jamestown,42.097,-79.2353,83.01,48,1,8.99,US,2021-06-06 16:21:27,clear sky
4,Port Alfred,-33.5906,26.891,65.7,43,0,9.26,ZA,2021-06-06 16:26:01,clear sky
5,Punta Arenas,-53.15,-70.9167,37.51,87,0,9.33,CL,2021-06-06 16:24:43,clear sky
6,Coquimbo,-29.9533,-71.3436,56.93,82,90,4.03,CL,2021-06-06 16:26:04,overcast clouds
7,Upernavik,72.7868,-56.1549,36.86,82,14,3.58,GL,2021-06-06 16:26:05,few clouds
8,Nouadhibou,20.931,-17.0347,76.98,57,42,16.11,MR,2021-06-06 16:26:06,sand
9,Praia Da Vitoria,38.7333,-27.0667,71.76,73,40,2.68,PT,2021-06-06 16:26:08,scattered clouds
10,Tuy Hoa,13.0833,109.3,80.02,83,98,5.7,VN,2021-06-06 16:26:09,overcast clouds
11,Hobart,-42.8794,147.3294,51.26,88,99,7.02,AU,2021-06-06 16:26:10,overcast clouds
12,Tuktoyaktuk,69.4541,-133.0374,32.0,80,90,8.05,CA,2021-06-06 16:26:11,overcast clouds
13,New Norfolk,-42.7826,147.0587,50.92,85,100,1.01,AU,2021-06-06 16:26:13,overcast clouds
14,Portland,45.5234,-122.6762,54.28,79,90,4.0,US,2021-06-06 16:25:29,overcast clouds
15,Hithadhoo,-0.6,73.0833,83.55,71,82,11.86,MV,2021-06-06 16:26:15,broken clouds
16,Cape Town,-33.9258,18.4232,73.81,27,0,11.72,ZA,2021-06-06 16:21:34,clear sky
17,Airai,-8.9266,125.4092,56.39,88,98,2.89,TL,2021-06-06 16:26:17,overcast clouds
18,Ushuaia,-54.8,-68.3,38.86,70,75,5.75,AR,2021-06-06 16:25:16,broken clouds
19,Khatanga,71.9667,102.5,34.21,86,99,4.97,RU,2021-06-06 16:26:20,overcast clouds
20,Svetlogorsk,52.6333,29.7333,65.62,79,74,7.61,BY,2021-06-06 16:26:21,broken clouds
21,Ust-Kuyga,70.0167,135.6,40.23,71,5,3.47,RU,2021-06-06 16:26:23,clear sky
22,Usinsk,65.9939,57.5281,47.66,42,100,15.1,RU,2021-06-06 16:24:16,overcast clouds
23,Rehoboth,-23.3167,17.0833,64.26,20,0,6.82,NA,2021-06-06 16:26:25,clear sky
24,Kirakira,-10.4544,161.9205,79.36,85,42,8.34,SB,2021-06-06 16:26:26,scattered clouds
25,Half Moon Bay,37.4636,-122.4286,68.61,68,90,1.01,US,2021-06-06 16:26:27,haze
26,Ugoofaaru,5.6667,73.0,82.72,76,93,13.13,MV,2021-06-06 16:26:29,overcast clouds
27,Georgetown,5.4112,100.3354,82.33,86,20,2.3,MY,2021-06-06 16:25:06,few clouds
28,Rikitea,-23.1203,-134.9692,76.44,82,97,14.7,PF,2021-06-06 16:26:31,light rain
29,Saint-Philippe,-21.3585,55.7679,72.99,83,73,12.57,RE,2021-06-06 16:26:32,light rain
30,Trairi,-3.2778,-39.2689,88.14,53,45,10.27,BR,2021-06-06 16:25:52,scattered clouds
31,Oistins,13.0667,-59.5333,87.89,51,20,18.41,BB,2021-06-06 16:26:36,few clouds
32,Nome,64.5011,-165.4064,36.16,93,90,8.05,US,2021-06-06 16:26:38,light rain
33,Lagos,6.5833,3.75,84.52,68,33,9.44,NG,2021-06-06 16:26:40,light rain
34,Hobyo,5.3505,48.5268,79.88,81,38,27.49,SO,2021-06-06 16:26:41,scattered clouds
35,Barrow,71.2906,-156.7887,30.22,93,90,9.22,US,2021-06-06 16:25:02,mist
36,Avarua,-21.2078,-159.775,66.25,82,40,1.14,CK,2021-06-06 16:26:43,scattered clouds
37,Mangan,27.5167,88.5333,74.98,95,97,0.76,IN,2021-06-06 16:26:45,overcast clouds
38,East London,-33.0153,27.9116,63.54,51,0,6.91,ZA,2021-06-06 16:26:46,clear sky
39,Rorvik,64.8621,11.2373,57.31,88,75,11.5,NO,2021-06-06 16:26:47,light rain
40,Catabola,-12.15,17.2833,68.13,38,67,2.17,AO,2021-06-06 16:26:49,broken clouds
41,Jacareacanga,-6.2222,-57.7528,93.9,41,56,4.14,BR,2021-06-06 16:26:50,broken clouds
42,Ancud,-41.8697,-73.8203,50.23,77,100,9.37,CL,2021-06-06 16:26:52,overcast clouds
43,Oksbol,55.6268,8.2876,64.69,78,100,9.08,DK,2021-06-06 16:26:53,overcast clouds
44,Bluff,-46.6,168.3333,46.27,84,63,5.37,NZ,2021-06-06 16:26:54,broken clouds
45,Eydhafushi,5.1033,73.0708,83.05,75,55,13.04,MV,2021-06-06 16:26:56,broken clouds
46,Constitucion,-35.3333,-72.4167,54.95,50,92,5.06,CL,2021-06-06 16:25:56,overcast clouds
47,Saskylakh,71.9167,114.0833,37.18,67,96,6.04,RU,2021-06-06 16:26:58,overcast clouds
48,Hun,29.1268,15.9477,93.97,12,0,11.25,LY,2021-06-06 16:26:59,clear sky
49,Mahebourg,-20.4081,57.7,73.69,88,20,8.05,MU,2021-06-06 16:27:01,few clouds
50,Chokurdakh,70.6333,147.9167,34.36,90,100,8.01,RU,2021-06-06 16:27:02,light rain
51,Bambous Virieux,-20.3428,57.7575,73.65,88,20,9.86,MU,2021-06-06 16:27:03,few clouds
52,Amambai,-23.1042,-55.2258,82.67,27,99,6.35,BR,2021-06-06 16:27:05,overcast clouds
53,Alofi,-19.0595,-169.9187,62.49,94,90,1.14,NU,2021-06-06 16:27:06,overcast clouds
54,Thompson,55.7435,-97.8558,57.36,88,90,0.0,CA,2021-06-06 16:27:07,overcast clouds
55,Port Hardy,50.6996,-127.4199,50.18,87,90,10.36,CA,2021-06-06 16:27:09,light rain
56,Banda Aceh,5.5577,95.3222,80.42,77,98,14.52,ID,2021-06-06 16:27:10,overcast clouds
57,Daru,-9.0763,143.2092,77.04,88,99,17.92,PG,2021-06-06 16:27:11,overcast clouds
58,Kailua,21.4022,-157.7394,75.18,74,20,6.91,US,2021-06-06 16:27:13,few clouds
59,Valleyview,55.0667,-117.2859,53.64,43,81,13.8,CA,2021-06-06 16:27:14,broken clouds
60,Diffa,13.3154,12.6113,101.77,17,46,19.71,NE,2021-06-06 16:27:15,scattered clouds
61,Marawi,7.9986,124.2928,64.65,94,100,2.86,PH,2021-06-06 16:27:17,overcast clouds
62,Te Anau,-45.4167,167.7167,36.48,93,22,1.28,NZ,2021-06-06 16:27:18,few clouds
63,Opuwo,-18.0607,13.84,74.59,22,0,9.66,NA,2021-06-06 16:27:19,clear sky
64,Hermanus,-34.4187,19.2345,70.9,45,9,7.25,ZA,2021-06-06 16:27:21,clear sky
65,Tarakan,3.3,117.6333,81.48,78,100,4.7,ID,2021-06-06 16:27:22,moderate rain
66,Yellowknife,62.456,-114.3525,45.32,65,75,5.99,CA,2021-06-06 16:27:23,broken clouds
67,Norman Wells,65.282,-126.8329,44.64,87,90,12.66,CA,2021-06-06 16:27:25,light rain
68,Elizabeth City,36.2946,-76.2511,91.06,71,1,5.75,US,2021-06-06 16:27:26,clear sky
69,Ajaccio,42.0,8.9167,70.29,69,0,4.43,FR,2021-06-06 16:27:27,clear sky
70,Albany,42.6001,-73.9662,89.62,47,56,1.99,US,2021-06-06 16:22:50,broken clouds
71,Uvira,-3.4067,29.1458,80.73,75,82,6.4,CD,2021-06-06 16:27:30,broken clouds
72,Pangnirtung,66.1451,-65.7125,42.8,45,75,9.22,CA,2021-06-06 16:27:31,broken clouds
73,Alihe,50.5667,123.7167,49.51,80,2,2.17,CN,2021-06-06 16:27:32,clear sky
74,Hilo,19.7297,-155.09,72.28,81,90,5.75,US,2021-06-06 16:27:34,overcast clouds
75,Urut,41.0714,44.3964,56.16,93,79,3.74,AM,2021-06-06 16:27:36,broken clouds
76,Tigil,57.8,158.6667,42.46,86,84,6.24,RU,2021-06-06 16:27:38,broken clouds
77,Mataura,-46.1927,168.8643,44.06,86,99,2.08,NZ,2021-06-06 16:27:39,overcast clouds
78,Leningradskiy,69.3833,178.4167,33.28,91,92,11.21,RU,2021-06-06 16:27:40,overcast clouds
79,Tombouctou,20.0,-3.0,113.79,6,3,15.59,ML,2021-06-06 16:27:43,clear sky
80,Macas,-2.3167,-78.1167,71.35,94,75,3.44,EC,2021-06-06 16:27:44,light rain
81,Saint-Pierre,-21.3393,55.4781,73.08,83,75,6.91,RE,2021-06-06 16:27:45,light rain
82,Poum,-20.2333,164.0167,72.54,60,93,18.72,NC,2021-06-06 16:27:47,overcast clouds
83,Kapaa,22.0752,-159.319,75.52,82,75,1.99,US,2021-06-06 16:27:48,light rain
84,Luderitz,-26.6481,15.1594,66.74,42,0,2.04,NA,2021-06-06 16:27:50,clear sky
85,Asau,46.4333,26.4,67.28,54,12,1.66,RO,2021-06-06 16:27:51,few clouds
86,Busselton,-33.65,115.3333,50.09,71,28,8.52,AU,2021-06-06 16:27:52,scattered clouds
87,Vanavara,60.34,102.2797,36.75,66,1,5.7,RU,2021-06-06 16:27:54,clear sky
88,Alencon,48.4333,0.0833,70.59,56,71,6.26,FR,2021-06-06 16:27:55,broken clouds
89,Bosaso,11.2842,49.1816,91.83,48,2,1.43,SO,2021-06-06 16:27:56,clear sky
90,Hof,50.3167,11.9167,68.45,85,20,2.3,DE,2021-06-06 16:27:58,few clouds
91,Vaini,-21.2,-175.2,71.76,83,40,6.91,TO,2021-06-06 16:27:59,scattered clouds
92,Qaanaaq,77.484,-69.3632,39.74,84,84,4.65,GL,2021-06-06 16:28:00,broken clouds
93,Benjamin Aceval,-24.9667,-57.5667,69.94,60,75,8.75,PY,2021-06-06 16:28:03,broken clouds
94,Bow Island,49.8668,-111.3684,61.18,44,85,5.75,CA,2021-06-06 16:28:04,overcast clouds
95,Aklavik,68.2191,-135.0107,34.63,80,75,5.75,CA,2021-06-06 16:28:05,broken clouds
96,Miri,4.4148,114.0089,77.14,94,20,4.54,MY,2021-06-06 16:28:07,light rain
97,Ziro,27.6333,93.8333,57.43,98,96,0.25,IN,2021-06-06 16:28:08,overcast clouds
98,Ilulissat,69.2167,-51.1,39.22,81,20,5.75,GL,2021-06-06 16:28:09,few clouds
99,Eirunepe,-6.6603,-69.8736,76.8,88,100,0.87,BR,2021-06-06 16:28:11,overcast clouds
100,Mar Del Plata,-38.0023,-57.5575,57.99,62,20,4.0,AR,2021-06-06 16:28:12,few clouds
101,Lebu,-37.6167,-73.65,50.34,70,100,1.34,CL,2021-06-06 16:28:14,overcast clouds
102,Salym,60.0625,71.4789,53.24,88,96,5.21,RU,2021-06-06 16:28:16,overcast clouds
103,Kerema,-7.9631,145.7785,77.43,92,99,3.58,PG,2021-06-06 16:28:17,overcast clouds
104,Dawlatabad,36.4141,64.9053,96.51,14,0,9.17,AF,2021-06-06 16:28:18,clear sky
105,Singaraja,-8.112,115.0882,79.0,83,53,3.09,ID,2021-06-06 16:28:20,broken clouds
106,Malangwa,26.8568,85.5581,91.58,35,1,5.41,NP,2021-06-06 16:28:21,clear sky
107,Montemorelos,25.2,-99.8167,89.56,37,0,5.12,MX,2021-06-06 16:28:23,clear sky
108,Port Elizabeth,-33.918,25.5701,66.09,67,0,5.75,ZA,2021-06-06 16:27:55,clear sky
109,Saint-Augustin,51.226,-58.6502,58.33,37,4,10.85,CA,2021-06-06 16:28:25,clear sky
110,Skjervoy,70.0311,20.9714,51.8,67,78,10.33,NO,2021-06-06 16:28:26,light rain
111,Faanui,-16.4833,-151.75,80.56,72,2,11.88,PF,2021-06-06 16:28:28,clear sky
112,Yerbogachen,61.2767,108.0108,41.61,54,19,9.19,RU,2021-06-06 16:28:29,few clouds
113,Ndioum,16.5129,-14.6471,112.89,8,4,12.15,SN,2021-06-06 16:28:30,clear sky
114,Tura,25.5198,90.2201,74.73,96,39,9.01,IN,2021-06-06 16:28:32,scattered clouds
115,Kodiak,57.79,-152.4072,53.11,50,1,19.57,US,2021-06-06 16:28:33,clear sky
116,Tiznit,29.5833,-9.5,82.44,37,46,8.77,MA,2021-06-06 16:28:34,scattered clouds
117,Provideniya,64.3833,-173.3,36.48,74,14,4.83,RU,2021-06-06 16:28:36,few clouds
118,Pakxe,15.1167,105.7833,76.26,94,97,4.63,LA,2021-06-06 16:28:37,overcast clouds
119,Bredasdorp,-34.5322,20.0403,63.72,36,11,6.49,ZA,2021-06-06 16:28:40,few clouds
120,Santa Isabel Do Rio Negro,-0.4139,-65.0192,90.95,49,47,4.99,BR,2021-06-06 16:28:41,scattered clouds
121,Husavik,66.0449,-17.3389,60.71,60,65,10.65,IS,2021-06-06 16:28:42,broken clouds
122,Longyearbyen,78.2186,15.6401,39.04,70,0,14.97,SJ,2021-06-06 16:28:44,clear sky
123,Iguape,-24.7081,-47.5553,72.18,83,100,12.17,BR,2021-06-06 16:28:45,overcast clouds
124,Elko,41.0002,-115.5012,64.63,29,71,7.0,US,2021-06-06 16:27:13,broken clouds
125,Primorsk,46.7348,36.3443,65.73,68,72,17.11,UA,2021-06-06 16:28:47,broken clouds
126,Hamilton,39.1834,-84.5333,83.59,81,90,5.88,US,2021-06-06 16:28:50,overcast clouds
127,Severo-Kurilsk,50.6789,156.125,40.44,96,91,12.26,RU,2021-06-06 16:28:51,overcast clouds
128,Hambantota,6.1241,81.1185,80.92,82,72,15.99,LK,2021-06-06 16:28:53,broken clouds
129,Yarada,17.65,83.2667,88.12,74,20,16.91,IN,2021-06-06 16:28:54,few clouds
130,Zlynka,52.4267,31.7378,65.98,87,100,6.62,RU,2021-06-06 16:28:55,light rain
131,Samarai,-10.6167,150.6667,77.74,90,100,17.36,PG,2021-06-06 16:28:57,overcast clouds
132,Fortuna,40.5982,-124.1573,57.42,69,1,7.0,US,2021-06-06 16:28:18,clear sky
133,Clyde River,70.4692,-68.5914,34.03,100,90,11.5,CA,2021-06-06 16:28:59,light intensity drizzle
134,Dingle,10.9995,122.6711,77.05,84,100,2.57,PH,2021-06-06 16:29:00,light rain
135,Kargat,55.1956,80.2811,57.9,83,50,8.9,RU,2021-06-06 16:29:02,scattered clouds
136,Nikolskoye,59.7035,30.7861,75.4,44,14,5.08,RU,2021-06-06 16:29:03,few clouds
137,Saint-Georges,12.0564,-61.7485,82.08,83,40,20.71,GD,2021-06-06 16:29:04,scattered clouds
138,Absam,47.3,11.5,65.39,65,75,3.0,AT,2021-06-06 16:29:06,broken clouds
139,Lagunas,-5.2269,-75.6753,79.45,82,99,0.38,PE,2021-06-06 16:29:07,overcast clouds
140,Vung Tau,10.346,107.0843,83.68,78,100,13.96,VN,2021-06-06 16:29:08,light rain
141,Kibungo,-2.1597,30.5427,70.72,72,68,2.51,RW,2021-06-06 16:29:10,broken clouds
142,Dinant,50.2584,4.9106,73.42,71,75,1.99,BE,2021-06-06 16:29:11,broken clouds
143,Utiel,39.5667,-1.2,72.54,31,35,4.36,ES,2021-06-06 16:29:12,scattered clouds
144,Zambezi,-13.5432,23.1047,67.35,41,89,4.92,ZM,2021-06-06 16:29:14,overcast clouds
145,Atuona,-9.8,-139.0333,79.16,66,68,11.12,PF,2021-06-06 16:29:15,broken clouds
146,Kashiwazaki,37.3667,138.55,63.88,75,100,3.29,JP,2021-06-06 16:29:16,overcast clouds
147,Arantangi,10.1667,78.9833,83.48,73,99,12.93,IN,2021-06-06 16:29:19,overcast clouds
148,Rio Gallegos,-51.6226,-69.2181,42.85,61,75,9.22,AR,2021-06-06 16:29:20,broken clouds
149,Ziyang,29.2497,117.8547,67.62,78,1,3.49,CN,2021-06-06 16:29:21,clear sky
150,Port-Gentil,-0.7193,8.7815,82.36,78,40,12.66,GA,2021-06-06 16:29:23,scattered clouds
151,Trapani,37.8333,12.6667,84.7,94,20,11.79,IT,2021-06-06 16:29:24,few clouds
152,Isangel,-19.55,169.2667,71.62,68,100,12.68,VU,2021-06-06 16:29:25,overcast clouds
153,Hasaki,35.7333,140.8333,66.49,90,100,4.9,JP,2021-06-06 16:29:27,overcast clouds
154,Nayoro,44.3506,142.4578,52.14,96,15,5.46,JP,2021-06-06 16:29:28,few clouds
155,Tessalit,20.1986,1.0114,109.36,7,34,20.98,ML,2021-06-06 16:29:29,scattered clouds
156,Voyvozh,62.892,54.9635,60.48,35,84,4.25,RU,2021-06-06 16:29:31,broken clouds
157,Grand Gaube,-20.0064,57.6608,73.8,83,52,1.99,MU,2021-06-06 16:29:32,broken clouds
158,Alice Springs,-23.7,133.8833,42.35,65,0,5.48,AU,2021-06-06 16:29:33,clear sky
159,Khani,41.9563,42.9566,53.17,99,100,3.65,GE,2021-06-06 16:29:35,overcast clouds
160,Cascais,38.6979,-9.4215,78.66,54,20,5.99,PT,2021-06-06 16:26:49,few clouds
161,Olga,43.7444,135.2892,52.39,93,0,6.2,RU,2021-06-06 16:29:37,clear sky
162,General Roca,-39.0333,-67.5833,54.0,38,51,19.62,AR,2021-06-06 16:29:40,broken clouds
163,Kiama,-34.6833,150.8667,54.25,78,4,7.47,AU,2021-06-06 16:29:41,clear sky
164,San Patricio,28.017,-97.5169,88.21,67,1,12.01,US,2021-06-06 16:29:42,clear sky
165,Sangar,63.9242,127.4739,50.77,41,100,2.19,RU,2021-06-06 16:29:45,overcast clouds
166,Callaway,30.153,-85.5699,88.0,69,40,4.0,US,2021-06-06 16:29:47,scattered clouds
167,Aksarka,66.5606,67.7975,42.87,47,77,11.34,RU,2021-06-06 16:29:49,broken clouds
168,Dikson,73.5069,80.5464,30.72,88,100,11.79,RU,2021-06-06 16:29:50,overcast clouds
169,Bantogon,6.5333,124.0333,80.08,72,100,3.6,PH,2021-06-06 16:29:51,overcast clouds
170,Tenenkou,14.4572,-4.9169,106.77,16,5,6.64,ML,2021-06-06 16:29:53,clear sky
171,Labuan,5.2767,115.2417,80.96,94,20,0.0,MY,2021-06-06 16:29:54,few clouds
172,Bubaque,11.2833,-15.8333,80.1,82,8,10.98,GW,2021-06-06 16:29:55,clear sky
173,Xinzhi,36.4989,111.7047,85.73,18,100,6.87,CN,2021-06-06 16:29:57,light rain
174,Deputatskiy,69.3,139.9,33.04,83,33,2.82,RU,2021-06-06 16:29:58,scattered clouds
175,Oussouye,12.485,-16.5469,91.58,54,42,12.15,SN,2021-06-06 16:29:59,scattered clouds
176,Matamoros,25.5333,-103.25,89.71,21,1,8.55,MX,2021-06-06 16:27:55,clear sky
177,Sao Joao Da Barra,-21.6403,-41.0511,82.49,72,16,13.85,BR,2021-06-06 16:30:03,few clouds
178,Petrokamenskoye,57.716,60.6484,60.84,58,21,6.26,RU,2021-06-06 16:30:04,few clouds
179,Kavieng,-2.5744,150.7967,81.59,74,93,2.57,PG,2021-06-06 16:30:06,light rain
180,Oga,46.4631,10.347,59.68,80,90,4.32,IT,2021-06-06 16:30:07,overcast clouds
181,Eureka,40.8021,-124.1637,57.67,76,40,8.01,US,2021-06-06 16:27:05,scattered clouds
182,Bereda,43.2686,-7.5406,67.41,70,92,7.4,ES,2021-06-06 16:30:09,overcast clouds
183,Naze,28.3667,129.4833,68.47,92,100,2.57,JP,2021-06-06 16:30:11,light rain
184,Amarante Do Maranhao,-5.5667,-46.7422,89.96,39,11,6.4,BR,2021-06-06 16:30:12,few clouds
185,Port Hawkesbury,45.6169,-61.3485,69.06,79,1,8.99,CA,2021-06-06 16:30:14,clear sky
186,Ostrovnoy,68.0531,39.5131,42.26,72,21,12.3,RU,2021-06-06 16:30:15,few clouds
187,Saint George,37.1041,-113.5841,95.47,14,1,1.99,US,2021-06-06 16:30:16,clear sky
188,Sibu,2.3,111.8167,75.51,100,40,1.99,MY,2021-06-06 16:30:19,scattered clouds
189,Fokino,42.9836,132.4047,52.83,75,2,3.22,RU,2021-06-06 16:30:20,clear sky
190,Kavaratti,10.5669,72.642,82.94,75,100,10.4,IN,2021-06-06 16:30:22,overcast clouds
191,Giyon,8.5333,37.9833,63.77,76,91,4.43,ET,2021-06-06 16:30:23,light rain
192,Urengoy,65.9667,78.3667,37.35,71,100,7.56,RU,2021-06-06 16:30:25,overcast clouds
193,Tilichiki,60.4667,166.1,36.97,90,100,8.93,RU,2021-06-06 16:30:27,light rain
194,Severnoye,56.3491,78.3619,59.38,75,21,11.43,RU,2021-06-06 16:30:28,few clouds
195,Kloulklubed,7.0419,134.2556,77.5,77,99,7.07,PW,2021-06-06 16:30:30,overcast clouds
196,Port Lincoln,-34.7333,135.8667,59.18,56,70,18.39,AU,2021-06-06 16:30:33,broken clouds
197,Barcelos,41.5388,-8.6151,84.29,52,68,8.81,PT,2021-06-06 16:30:34,broken clouds
198,Makakilo City,21.3469,-158.0858,73.72,77,1,0.0,US,2021-06-06 16:30:36,clear sky
199,Talnakh,69.4865,88.3972,30.42,99,100,4.07,RU,2021-06-06 16:30:37,light snow
200,Mayo,38.8876,-76.5119,95.36,61,1,5.01,US,2021-06-06 16:30:38,clear sky
201,Izazi,-7.2,35.7333,72.43,55,29,6.44,TZ,2021-06-06 16:30:40,scattered clouds
202,Canmore,51.0834,-115.3521,51.91,49,100,3.56,CA,2021-06-06 16:30:14,overcast clouds
203,Sisimiut,66.9395,-53.6735,40.01,94,100,5.39,GL,2021-06-06 16:30:42,overcast clouds
204,Tautira,-17.7333,-149.15,75.22,75,6,12.8,PF,2021-06-06 16:30:43,clear sky
205,Kimbe,-5.5502,150.1429,75.34,92,98,3.2,PG,2021-06-06 16:30:45,overcast clouds
206,Tyukhtet,56.5389,89.3011,54.99,93,83,15.08,RU,2021-06-06 16:30:46,light rain
207,Khash,28.2211,61.2158,90.39,8,0,10.74,IR,2021-06-06 16:30:47,clear sky
208,Lata,40.1629,-8.3327,83.05,42,0,8.34,PT,2021-06-06 16:30:49,clear sky
209,Saint Albans,51.75,-0.3333,71.74,62,20,7.02,GB,2021-06-06 16:29:47,few clouds
210,Snyder,32.7179,-100.9176,81.52,65,1,13.8,US,2021-06-06 16:30:51,clear sky
211,Marang,5.2056,103.2059,78.71,79,98,3.33,MY,2021-06-06 16:30:53,overcast clouds
212,Nuuk,64.1835,-51.7216,45.21,87,75,13.8,GL,2021-06-06 16:30:54,light rain
213,Vila Franca Do Campo,37.7167,-25.4333,70.21,79,99,4.9,PT,2021-06-06 16:30:55,overcast clouds
214,Esperance,-33.8667,121.9,55.24,67,66,27.54,AU,2021-06-06 16:30:57,light rain
215,San Andres,12.5847,-81.7006,86.02,74,20,19.57,CO,2021-06-06 16:30:58,few clouds
216,Chuy,-33.6971,-53.4616,58.3,62,100,7.36,UY,2021-06-06 16:30:59,overcast clouds
217,Sept-Iles,50.2001,-66.3821,61.32,36,75,13.8,CA,2021-06-06 16:30:09,broken clouds
218,Iqaluit,63.7506,-68.5145,35.33,80,75,4.0,CA,2021-06-06 16:30:12,broken clouds
219,Lagoa,39.05,-27.9833,64.49,89,99,14.85,PT,2021-06-06 16:31:03,overcast clouds
220,Pokhara,28.2333,83.9833,74.95,62,63,4.63,NP,2021-06-06 16:31:04,broken clouds
221,Waingapu,-9.6567,120.2641,77.0,86,100,7.49,ID,2021-06-06 16:31:06,overcast clouds
222,Castro,-24.7911,-50.0119,74.88,43,93,6.64,BR,2021-06-06 16:31:07,overcast clouds
223,Zhanakorgan,43.9098,67.2495,84.42,31,29,8.68,KZ,2021-06-06 16:31:08,scattered clouds
224,Yelizovo,53.1873,158.3805,42.94,100,90,2.24,RU,2021-06-06 16:31:10,light rain
225,Birjand,32.8663,59.2211,91.87,7,0,6.91,IR,2021-06-06 16:31:11,clear sky
226,Ulaanbaatar,47.9077,106.8832,44.73,87,40,8.86,MN,2021-06-06 16:27:36,moderate rain
227,Kahului,20.8947,-156.47,75.85,77,20,10.36,US,2021-06-06 16:31:13,few clouds
228,Parana,-31.732,-60.5238,63.57,41,6,9.86,AR,2021-06-06 16:31:16,clear sky
229,Mahibadhoo,3.7833,72.9667,83.17,75,7,14.23,MV,2021-06-06 16:31:17,clear sky
230,Plettenberg Bay,-34.0527,23.3716,67.35,30,1,7.31,ZA,2021-06-06 16:28:16,clear sky
231,Dauphin,51.1494,-100.0502,71.74,46,20,19.57,CA,2021-06-06 16:31:20,few clouds
232,Zhuanghe,39.7008,122.9911,61.18,91,18,6.04,CN,2021-06-06 16:31:21,few clouds
233,Sorland,67.667,12.6934,55.26,81,53,9.08,NO,2021-06-06 16:31:22,broken clouds
234,Ust-Kishert,57.3654,57.2495,59.58,67,3,7.4,RU,2021-06-06 16:31:24,clear sky
235,Livingston,55.9029,-3.5226,65.26,47,0,7.09,GB,2021-06-06 16:31:25,clear sky
236,Virginia Beach,36.8529,-75.978,91.06,61,40,10.36,US,2021-06-06 16:28:01,scattered clouds
237,Carnarvon,-24.8667,113.6333,62.67,77,40,9.22,AU,2021-06-06 16:31:29,scattered clouds
238,Ambilobe,-13.2,49.05,72.39,89,67,3.94,MG,2021-06-06 16:31:31,light rain
239,Saryozek,44.3583,77.9753,57.36,43,0,1.61,KZ,2021-06-06 16:31:34,clear sky
240,Novoagansk,61.9449,76.6625,41.77,66,66,7.34,RU,2021-06-06 16:31:35,broken clouds
241,Fairbanks,64.8378,-147.7164,58.08,64,1,0.0,US,2021-06-06 16:31:36,clear sky
242,Pidhorodne,48.5753,35.1068,67.24,80,33,7.2,UA,2021-06-06 16:31:38,scattered clouds
243,Taltal,-25.4,-70.4833,64.18,72,0,5.77,CL,2021-06-06 16:31:39,clear sky
244,Taoudenni,22.6783,-3.9836,116.15,5,46,8.32,ML,2021-06-06 16:31:40,scattered clouds
245,Tecoanapa,16.5167,-98.75,86.72,66,100,5.99,MX,2021-06-06 16:31:42,overcast clouds
246,Victoria,22.2855,114.1577,82.45,84,15,5.99,HK,2021-06-06 16:27:46,few clouds
247,Cururupu,-1.8283,-44.8683,85.98,62,33,4.99,BR,2021-06-06 16:31:44,scattered clouds
248,Oranjemund,-28.55,16.4333,66.54,37,0,1.97,NA,2021-06-06 16:31:45,clear sky
249,Puri,19.8,85.85,89.38,83,81,19.98,IN,2021-06-06 16:31:47,broken clouds
250,Butaritari,3.0707,172.7902,81.88,74,8,7.72,KI,2021-06-06 16:31:48,clear sky
251,Murray Bridge,-35.1167,139.2667,62.13,57,100,14.47,AU,2021-06-06 16:30:14,overcast clouds
252,Fez,34.0372,-4.9998,93.45,18,20,14.72,MA,2021-06-06 16:31:50,few clouds
253,Bayanday,53.0661,105.5139,45.86,77,100,7.02,RU,2021-06-06 16:31:52,overcast clouds
254,Zlobin,45.2924,14.6541,65.5,68,20,1.01,HR,2021-06-06 16:31:53,few clouds
255,Sao Gabriel Da Cachoeira,-0.1303,-67.0892,84.0,84,40,4.79,BR,2021-06-06 16:31:54,scattered clouds
256,Taree,-31.9,152.4667,47.34,81,40,8.05,AU,2021-06-06 16:31:17,scattered clouds
257,Quanzhou,24.9139,118.5858,71.55,69,99,6.46,CN,2021-06-06 16:31:57,overcast clouds
258,Nuevitas,21.5453,-77.2644,89.04,73,56,15.73,CU,2021-06-06 16:31:58,broken clouds
259,San Jeronimo,-11.9472,-75.2829,61.95,42,36,3.02,PE,2021-06-06 16:31:59,scattered clouds
260,Uruzgan,32.8333,66.0,81.16,9,0,3.96,AF,2021-06-06 16:32:01,clear sky
261,Ahipara,-35.1667,173.1667,60.84,90,100,14.36,NZ,2021-06-06 16:32:02,light rain
262,Namibe,-15.1961,12.1522,78.22,51,34,6.46,AO,2021-06-06 16:27:32,scattered clouds
263,Tiksi,71.6872,128.8694,42.17,69,88,7.38,RU,2021-06-06 16:32:05,overcast clouds
264,Vila Do Maio,15.1333,-23.2167,83.19,84,36,18.66,CV,2021-06-06 16:32:07,scattered clouds
265,Yulara,-25.2406,130.9889,49.84,53,0,4.61,AU,2021-06-06 16:32:08,clear sky
266,Burnie,-41.0667,145.9167,56.05,88,100,17.63,AU,2021-06-06 16:32:02,moderate rain
267,Bengkulu,-3.8004,102.2655,74.68,89,11,4.47,ID,2021-06-06 16:32:11,few clouds
268,Ponta Do Sol,32.6667,-17.1,73.71,69,0,2.73,PT,2021-06-06 16:32:12,clear sky
269,Bela Vista,-22.1089,-56.5211,94.08,23,93,7.76,BR,2021-06-06 16:32:13,overcast clouds
270,Vokhma,58.9303,46.7586,64.26,62,9,4.21,RU,2021-06-06 16:32:14,clear sky
271,Rach Gia,10.0167,105.0833,78.75,77,95,13.09,VN,2021-06-06 16:32:16,overcast clouds
272,Champerico,14.3,-91.9167,92.35,68,92,2.3,GT,2021-06-06 16:32:17,overcast clouds
273,Huilong,31.8111,121.655,75.04,68,0,12.75,CN,2021-06-06 16:32:18,light rain
274,Raymond,43.9015,-70.4703,91.69,46,11,4.61,US,2021-06-06 16:32:20,few clouds
275,Hay River,60.8156,-115.7999,40.98,75,75,14.97,CA,2021-06-06 16:32:21,broken clouds
276,Laurinburg,34.7741,-79.4628,90.01,69,20,1.01,US,2021-06-06 16:32:22,few clouds
277,Freeport,40.6576,-73.5832,95.31,50,1,3.0,US,2021-06-06 16:31:36,clear sky
278,Fare,-16.7,-151.0167,80.46,73,3,11.48,PF,2021-06-06 16:32:25,clear sky
279,Kaeo,-35.1,173.7833,59.32,96,100,20.13,NZ,2021-06-06 16:32:26,overcast clouds
280,Cayenne,4.9333,-52.3333,86.04,77,75,4.0,GF,2021-06-06 16:32:27,broken clouds
281,San Vicente,-26.6167,-54.1333,60.89,99,100,3.15,AR,2021-06-06 16:32:29,light rain
282,Arraial Do Cabo,-22.9661,-42.0278,84.16,58,0,10.36,BR,2021-06-06 16:31:51,clear sky
283,Richards Bay,-28.783,32.0377,61.09,73,0,8.48,ZA,2021-06-06 16:32:31,clear sky
284,Olden,61.8364,6.8064,67.26,68,34,5.99,NO,2021-06-06 16:32:33,scattered clouds
285,Orichi,58.4036,49.0572,63.0,68,10,5.95,RU,2021-06-06 16:32:34,clear sky
286,Klaksvik,62.2266,-6.589,49.12,95,100,19.64,FO,2021-06-06 16:32:35,overcast clouds
287,Adrar,20.5022,-10.0711,109.44,7,2,18.97,MR,2021-06-06 16:32:37,clear sky
288,Barcelona,41.3888,2.159,80.19,58,20,5.01,ES,2021-06-06 16:28:50,few clouds
289,Courtenay,49.6866,-124.9936,54.01,61,90,8.05,CA,2021-06-06 16:32:40,overcast clouds
290,Balakhta,55.38,91.6,48.16,95,56,8.48,RU,2021-06-06 16:32:41,broken clouds
291,Guca,43.7767,20.2253,65.84,91,100,3.22,RS,2021-06-06 16:32:43,overcast clouds
292,Souillac,-20.5167,57.5167,73.78,88,20,9.15,MU,2021-06-06 16:32:44,few clouds
293,Doka,13.5167,35.7667,90.43,31,86,7.9,SD,2021-06-06 16:32:45,overcast clouds
294,Mabaruma,8.2,-59.7833,85.23,66,55,7.31,GY,2021-06-06 16:32:47,broken clouds
295,Broken Hill,-31.95,141.4333,53.31,62,24,11.5,AU,2021-06-06 16:32:04,few clouds
296,Asosa,10.0667,34.5333,64.6,88,55,1.52,ET,2021-06-06 16:32:49,light rain
297,Ribeira Grande,38.5167,-28.7,70.2,83,40,14.97,PT,2021-06-06 16:32:51,scattered clouds
298,Iraucuba,-3.7461,-39.7833,90.81,42,40,7.54,BR,2021-06-06 16:32:52,scattered clouds
299,Llanes,43.4198,-4.7549,70.86,79,55,6.71,ES,2021-06-06 16:32:53,broken clouds
300,Dalaba,10.7,-12.25,73.62,73,53,6.85,GN,2021-06-06 16:32:55,moderate rain
301,Ucluelet,48.9329,-125.5528,54.09,90,100,1.01,CA,2021-06-06 16:32:56,overcast clouds
302,Pacific Grove,36.6177,-121.9166,64.26,82,90,7.0,US,2021-06-06 16:32:52,overcast clouds
303,Mastic Beach,40.7668,-72.8521,92.39,55,1,9.22,US,2021-06-06 16:32:58,clear sky
304,Lorengau,-2.0226,147.2712,79.61,83,99,10.87,PG,2021-06-06 16:33:00,overcast clouds
305,Lethem,3.3803,-59.7968,87.39,62,45,5.91,GY,2021-06-06 16:33:01,scattered clouds
306,Zaysan,47.4667,84.8667,51.82,46,0,5.12,KZ,2021-06-06 16:33:02,clear sky
307,Meiganga,6.5167,14.3,70.18,89,96,4.32,CM,2021-06-06 16:33:04,light rain
308,Inhambane,-23.865,35.3833,66.18,77,20,0.0,MZ,2021-06-06 16:33:05,few clouds
309,Beckley,37.7782,-81.1882,81.7,64,1,1.99,US,2021-06-06 16:30:08,clear sky
310,Geraldton,-28.7667,114.6,54.12,93,80,11.01,AU,2021-06-06 16:31:07,broken clouds
311,Umm Kaddadah,13.6017,26.6876,97.38,11,21,10.36,SD,2021-06-06 16:33:09,few clouds
312,Robstown,27.7903,-97.6689,88.14,71,1,13.8,US,2021-06-06 16:33:10,clear sky
313,Anadyr,64.75,177.4833,43.3,65,20,5.99,RU,2021-06-06 16:33:11,few clouds
314,Ostersund,63.1792,14.6357,59.45,88,0,8.05,SE,2021-06-06 16:33:13,clear sky
315,Pevek,69.7008,170.3133,46.71,75,27,12.46,RU,2021-06-06 16:33:15,scattered clouds
316,Hailey,43.5196,-114.3153,58.89,35,1,10.36,US,2021-06-06 16:33:16,clear sky
317,Gat,31.61,34.7642,77.81,51,0,8.72,IL,2021-06-06 16:32:04,clear sky
318,Newport,51.5877,-2.9984,71.64,67,22,6.35,GB,2021-06-06 16:32:36,few clouds
319,Tual,-5.6667,132.75,81.21,78,97,14.67,ID,2021-06-06 16:33:20,overcast clouds
320,Beoumi,7.6736,-5.5764,92.77,42,84,7.78,CI,2021-06-06 16:33:21,broken clouds
321,Cidreira,-30.1811,-50.2056,63.48,82,100,8.39,BR,2021-06-06 16:33:23,overcast clouds
322,Shingu,33.7333,135.9833,68.38,83,100,2.37,JP,2021-06-06 16:33:24,light rain
323,Sur,22.5667,59.5289,85.71,75,0,14.23,OM,2021-06-06 16:33:25,clear sky
324,Muravlenko,63.7898,74.523,42.44,54,21,10.58,RU,2021-06-06 16:33:28,few clouds
325,Walvis Bay,-22.9575,14.5053,86.95,16,1,5.44,NA,2021-06-06 16:33:29,clear sky
326,Vardo,70.3705,31.1107,46.6,61,40,13.8,NO,2021-06-06 16:33:30,scattered clouds
327,Gladstone,-23.85,151.25,53.53,66,12,5.75,AU,2021-06-06 16:33:32,few clouds
328,Diamantino,-14.4086,-56.4461,92.07,31,100,6.35,BR,2021-06-06 16:31:36,overcast clouds
329,Sinnamary,5.3833,-52.95,76.64,90,86,9.75,GF,2021-06-06 16:33:34,overcast clouds
330,Cap Malheureux,-19.9842,57.6142,73.89,83,49,1.99,MU,2021-06-06 16:33:35,scattered clouds
331,Bathsheba,13.2167,-59.5167,88.41,51,20,19.24,BB,2021-06-06 16:33:37,few clouds
332,Dunedin,-45.8742,170.5036,45.81,85,0,2.98,NZ,2021-06-06 16:33:38,clear sky
333,Namatanai,-3.6667,152.4333,78.98,84,100,5.28,PG,2021-06-06 16:33:39,light rain
334,Manado,1.487,124.8455,77.77,94,40,2.59,ID,2021-06-06 16:33:40,scattered clouds
335,Torbay,47.6666,-52.7314,56.28,96,90,12.66,CA,2021-06-06 16:33:42,moderate rain
336,Rawson,-43.3002,-65.1023,53.67,42,74,21.9,AR,2021-06-06 16:33:43,broken clouds
337,Tasiilaq,65.6145,-37.6368,44.76,92,91,4.25,GL,2021-06-06 16:33:45,overcast clouds
338,Coahuayana,18.7333,-103.6833,90.88,42,98,6.58,MX,2021-06-06 16:33:46,overcast clouds
339,Sistranda,63.7256,8.834,57.16,89,89,4.36,NO,2021-06-06 16:33:47,moderate rain
340,Santa Maria,-29.6842,-53.8069,58.3,94,90,8.59,BR,2021-06-06 16:33:49,heavy intensity rain
341,Cotonou,6.3654,2.4183,85.98,70,20,13.8,BJ,2021-06-06 16:29:34,few clouds
342,Heinola,61.2056,26.0381,75.29,59,47,2.91,FI,2021-06-06 16:33:51,scattered clouds
343,Kingman,35.1894,-114.053,86.52,10,1,11.99,US,2021-06-06 16:33:52,clear sky
344,Carupano,10.6678,-63.2585,81.95,73,100,5.17,VE,2021-06-06 16:33:54,overcast clouds
345,Jiamusi,46.8333,130.35,54.14,84,31,4.14,CN,2021-06-06 16:33:55,scattered clouds
346,Omsukchan,62.5333,155.8,39.22,93,100,8.16,RU,2021-06-06 16:33:58,overcast clouds
347,Vestmannaeyjar,63.4427,-20.2734,49.19,93,75,11.5,IS,2021-06-06 16:33:59,mist
348,Basar,27.9833,94.6667,69.28,98,96,0.83,IN,2021-06-06 16:34:00,overcast clouds
349,Lokosovo,61.1333,74.8167,49.57,68,70,4.76,RU,2021-06-06 16:34:03,broken clouds
350,Evora,38.5667,-7.9,85.14,19,0,9.62,PT,2021-06-06 16:34:04,clear sky
351,Soyo,-6.1349,12.3689,82.45,81,61,10.22,AO,2021-06-06 16:34:05,broken clouds
352,Payakumbuh,-0.2202,100.6308,67.62,83,59,3.76,ID,2021-06-06 16:34:07,broken clouds
353,Lasa,46.6166,10.7002,69.71,85,99,4.29,IT,2021-06-06 16:34:08,overcast clouds
354,Serenje,-13.2325,30.2352,59.85,55,94,7.34,ZM,2021-06-06 16:34:09,overcast clouds
355,Guapiacu,-20.795,-49.2203,84.49,32,40,6.2,BR,2021-06-06 16:34:11,scattered clouds
356,Mercedes,-34.6515,-59.4307,58.86,43,75,9.51,AR,2021-06-06 16:34:12,broken clouds
357,Joinville,-26.3044,-48.8456,81.1,65,20,4.54,BR,2021-06-06 16:34:13,few clouds
358,Avera,33.194,-82.5271,87.46,43,87,4.68,US,2021-06-06 16:34:15,overcast clouds
359,Presque Isle,46.6811,-68.0159,73.29,59,75,3.44,US,2021-06-06 16:34:16,broken clouds
360,Borogontsy,62.6683,131.1683,53.08,48,100,3.06,RU,2021-06-06 16:34:17,overcast clouds
361,Pahrump,36.2083,-115.9839,95.68,15,0,1.01,US,2021-06-06 16:34:19,clear sky
362,Jieshou,33.2634,115.3611,77.95,52,88,9.98,CN,2021-06-06 16:34:20,light rain
363,Hami,42.8,93.45,70.48,13,22,15.55,CN,2021-06-06 16:34:21,few clouds
364,Waipawa,-41.4122,175.5153,52.45,88,100,0.69,NZ,2021-06-06 16:34:23,light rain
365,Binzhou,37.3667,118.0167,79.05,39,98,13.22,CN,2021-06-06 16:34:25,light rain
366,Oranjestad,12.524,-70.027,85.95,70,40,21.85,AW,2021-06-06 16:34:27,scattered clouds
367,Francistown,-21.17,27.5079,56.53,47,4,14.36,BW,2021-06-06 16:34:28,clear sky
368,Novo Aripuana,-5.1206,-60.3797,92.62,44,31,4.23,BR,2021-06-06 16:34:29,scattered clouds
369,Pringsewu,-5.3582,104.9744,74.57,94,68,5.06,ID,2021-06-06 16:34:31,broken clouds
370,Santa Barbara,34.7333,-120.0343,54.3,82,90,5.7,US,2021-06-06 16:32:15,overcast clouds
371,Omboue,-1.5746,9.2618,78.55,87,100,6.76,GA,2021-06-06 16:34:33,overcast clouds
372,Fort Nelson,58.8053,-122.7002,49.59,93,90,6.91,CA,2021-06-06 16:30:14,light rain
373,Cervo,43.6702,-7.4101,71.19,71,83,10.04,ES,2021-06-06 16:34:35,broken clouds
374,Olot,42.181,2.4901,75.27,56,75,3.85,ES,2021-06-06 16:34:37,broken clouds
375,Scarborough,54.2797,-0.4044,67.82,76,67,1.99,GB,2021-06-06 16:34:38,broken clouds
376,Pitimbu,-7.4706,-34.8086,81.19,74,35,14.12,BR,2021-06-06 16:34:39,scattered clouds
377,Preobrazheniye,42.9019,133.9064,54.16,79,0,7.58,RU,2021-06-06 16:34:42,clear sky
378,Killybegs,54.6333,-8.45,57.45,64,98,4.52,IE,2021-06-06 16:34:43,overcast clouds
379,Chippenham,51.46,-2.1247,71.71,75,81,5.01,GB,2021-06-06 16:34:44,broken clouds
380,Stara Vyzhivka,51.4376,24.44,65.53,78,53,3.65,UA,2021-06-06 16:34:46,broken clouds
381,Saryagash,41.4511,69.1701,91.36,47,72,22.79,KZ,2021-06-06 16:34:47,broken clouds
382,Lompoc,34.6391,-120.4579,61.09,83,90,5.97,US,2021-06-06 16:32:17,mist
383,Jalu,29.0331,21.5482,87.71,17,0,10.33,LY,2021-06-06 16:34:50,clear sky
384,Laguna,38.421,-121.4238,84.04,57,1,1.99,US,2021-06-06 16:34:51,clear sky
385,Bethel,41.3712,-73.414,92.16,48,1,1.01,US,2021-06-06 16:34:52,clear sky
386,Sanchor,24.7553,71.7722,88.25,47,0,12.5,IN,2021-06-06 16:34:54,clear sky
387,Biak,-0.9131,122.8766,75.61,73,94,5.21,ID,2021-06-06 16:34:55,overcast clouds
388,Hendek,40.7994,30.7481,73.72,70,0,4.41,TR,2021-06-06 16:34:56,clear sky
389,Mareeba,-17.0,145.4333,65.12,93,64,2.35,AU,2021-06-06 16:34:58,broken clouds
390,Abu Samrah,35.3029,37.1841,76.12,28,0,11.72,SY,2021-06-06 16:34:59,clear sky
391,Amapa,1.0,-52.0,87.58,53,61,3.76,BR,2021-06-06 16:34:10,broken clouds
392,Mehamn,71.0357,27.8492,42.98,65,20,8.05,NO,2021-06-06 16:35:01,few clouds
393,Santa Cruz Do Rio Pardo,-22.8989,-49.6325,85.06,29,62,4.5,BR,2021-06-06 16:35:03,broken clouds
394,Dafeng,23.4517,108.5881,76.39,69,6,0.56,CN,2021-06-06 16:35:04,clear sky
395,Merauke,-8.4667,140.3333,76.17,90,100,15.1,ID,2021-06-06 16:35:05,overcast clouds
396,Camacha,33.0833,-16.3333,67.42,60,40,19.57,PT,2021-06-06 16:35:07,scattered clouds
397,Qaqortoq,60.7167,-46.0333,55.9,78,100,6.26,GL,2021-06-06 16:35:08,overcast clouds
398,Ranong,9.9658,98.6348,80.13,86,100,9.37,TH,2021-06-06 16:35:09,light rain
399,Camabatela,-8.1881,15.375,68.18,42,95,1.59,AO,2021-06-06 16:35:11,overcast clouds
400,Galle,6.0367,80.217,81.09,84,100,12.01,LK,2021-06-06 16:35:12,overcast clouds
401,Morehead,37.2711,-87.1764,82.83,81,75,1.01,US,2021-06-06 16:35:13,broken clouds
402,Meulaboh,4.1363,96.1285,76.21,87,100,4.43,ID,2021-06-06 16:34:36,light rain
403,Puerto Escondido,15.85,-97.0667,88.63,62,20,0.0,MX,2021-06-06 16:35:16,few clouds
404,Cabo San Lucas,22.8909,-109.9124,97.81,23,1,4.61,MX,2021-06-06 16:31:57,clear sky
405,Tuatapere,-46.1333,167.6833,41.56,87,49,3.69,NZ,2021-06-06 16:35:18,scattered clouds
406,Rocha,-34.4833,-54.3333,57.02,64,2,8.43,UY,2021-06-06 16:32:27,clear sky
407,Ejura,7.3856,-1.3562,90.93,46,92,8.19,GH,2021-06-06 16:35:21,overcast clouds
408,Conceicao Do Araguaia,-8.2578,-49.2647,93.33,38,0,7.61,BR,2021-06-06 16:35:22,clear sky
409,Vila Velha,-20.3297,-40.2925,78.94,75,40,8.99,BR,2021-06-06 16:35:25,scattered clouds
410,Tono,39.3167,141.5333,57.42,92,93,3.67,JP,2021-06-06 16:35:26,overcast clouds
411,Tazovskiy,67.4667,78.7,32.97,86,75,10.18,RU,2021-06-06 16:35:27,broken clouds
412,Victor Harbor,-35.5667,138.6167,62.47,73,98,1.99,AU,2021-06-06 16:35:28,overcast clouds
413,Macouria,4.9167,-52.3667,85.95,77,75,4.0,GF,2021-06-06 16:35:30,broken clouds
414,Bogorodskoye,56.55,37.8833,62.44,82,97,5.5,RU,2021-06-06 16:31:26,moderate rain
415,Nanortalik,60.1432,-45.2371,45.84,67,100,11.79,GL,2021-06-06 16:35:34,overcast clouds
416,Saldanha,-33.0117,17.9442,69.85,48,25,11.16,ZA,2021-06-06 16:35:36,scattered clouds
417,Kaitangata,-46.2817,169.8464,43.88,85,73,2.17,NZ,2021-06-06 16:35:37,broken clouds
418,Oktyabrskiy,54.4815,53.471,58.55,66,15,2.57,RU,2021-06-06 16:35:38,few clouds
419,Mandal,25.45,74.5667,88.03,44,90,8.97,IN,2021-06-06 16:35:40,overcast clouds
420,Port Macquarie,-31.4333,152.9167,47.37,70,3,5.7,AU,2021-06-06 16:35:41,clear sky
421,Sabang,5.8933,95.3214,83.28,73,100,22.66,ID,2021-06-06 16:35:42,overcast clouds
422,Mattru,7.6244,-11.8332,82.26,85,91,4.88,SL,2021-06-06 16:35:44,light rain
423,Stodolishche,54.1859,32.6492,61.32,88,98,6.78,RU,2021-06-06 16:35:48,moderate rain
424,Klyuchi,52.2667,79.1667,63.5,43,2,1.45,RU,2021-06-06 16:35:51,clear sky
425,Vila,42.0304,-8.1588,73.74,47,79,5.21,PT,2021-06-06 16:35:52,broken clouds
426,Port Blair,11.6667,92.75,84.11,77,96,12.64,IN,2021-06-06 16:35:53,overcast clouds
427,Alice Town,25.7167,-79.3,80.71,79,92,16.84,BS,2021-06-06 16:35:55,overcast clouds
428,Nadym,65.5333,72.5167,40.71,55,60,6.73,RU,2021-06-06 16:31:58,broken clouds
429,Sitka,57.0531,-135.33,49.89,81,90,3.44,US,2021-06-06 16:35:57,overcast clouds
430,Touros,-5.1989,-35.4608,76.1,71,41,14.76,BR,2021-06-06 16:35:59,scattered clouds
431,Awjilah,29.1081,21.2869,87.71,16,0,11.25,LY,2021-06-06 16:36:00,clear sky
432,Chokwe,-24.5333,32.9833,63.9,61,19,5.79,MZ,2021-06-06 16:36:01,few clouds
433,Sawtell,-30.3833,153.1,45.19,99,0,2.3,AU,2021-06-06 16:36:03,clear sky
434,The Valley,18.217,-63.0578,83.82,75,99,20.0,AI,2021-06-06 16:36:04,overcast clouds
435,Mogadishu,2.0371,45.3438,79.38,84,97,21.79,SO,2021-06-06 16:36:06,overcast clouds
436,Chicama,-7.8447,-79.1469,66.74,66,76,9.73,PE,2021-06-06 16:36:08,broken clouds
437,Gayny,60.3071,54.3241,64.29,57,73,0.96,RU,2021-06-06 16:36:09,broken clouds
438,Codrington,-38.2667,141.9667,55.9,70,100,17.36,AU,2021-06-06 16:36:10,overcast clouds
439,Camopi,3.1655,-52.3158,88.65,52,33,3.89,GF,2021-06-06 16:36:12,scattered clouds
440,Bowen,-20.0167,148.2333,61.02,81,97,15.39,AU,2021-06-06 16:36:13,overcast clouds
441,Sumter,28.7086,-82.0831,92.98,60,89,10.09,US,2021-06-06 16:36:14,overcast clouds
442,Blonie,52.1985,20.6171,75.99,53,16,6.31,PL,2021-06-06 16:36:16,few clouds
443,Zeya,53.75,127.2667,55.15,67,81,2.77,RU,2021-06-06 16:36:17,broken clouds
444,Gejiu,23.306,103.1635,58.21,96,96,3.56,CN,2021-06-06 16:36:19,overcast clouds
445,Grindavik,63.8424,-22.4338,50.56,87,90,15.77,IS,2021-06-06 16:36:20,light rain
446,College,64.8569,-147.8028,58.08,64,40,4.61,US,2021-06-06 16:36:21,scattered clouds
447,Russkaya Polyana,49.417,31.9201,60.78,87,83,7.65,UA,2021-06-06 16:36:23,broken clouds
448,Kazanskoye,55.6448,69.235,58.62,61,0,7.18,RU,2021-06-06 16:36:24,clear sky
449,Ust-Tsilma,65.441,52.1498,49.35,39,14,9.95,RU,2021-06-06 16:36:25,few clouds
450,Mount Gambier,-37.8333,140.7667,55.31,76,40,12.66,AU,2021-06-06 16:36:27,scattered clouds
451,Goderich,43.7501,-81.7165,85.03,53,86,13.8,CA,2021-06-06 16:33:54,overcast clouds
452,Tarko-Sale,64.9225,77.785,43.0,72,76,1.01,RU,2021-06-06 16:32:12,broken clouds
453,Flinders,-34.5833,150.8552,54.05,82,7,1.01,AU,2021-06-06 16:36:30,clear sky
454,Kamenka,51.3223,42.7678,59.67,87,63,5.19,RU,2021-06-06 16:36:32,broken clouds
455,Matata,-37.8833,176.75,62.15,90,100,16.58,NZ,2021-06-06 16:36:33,moderate rain
456,Ngunguru,-35.6167,174.5,58.15,94,100,31.05,NZ,2021-06-06 16:36:34,light rain
457,Thunder Bay,48.4001,-89.3168,83.98,75,75,8.05,CA,2021-06-06 16:35:27,broken clouds
458,Pontal Do Parana,-25.6533,-48.5128,83.21,84,100,5.99,BR,2021-06-06 16:36:37,overcast clouds
459,San Quintin,30.4833,-115.95,75.43,66,98,5.3,MX,2021-06-06 16:36:38,overcast clouds
460,Businga,3.3333,20.8833,72.59,92,100,3.47,CD,2021-06-06 16:36:39,overcast clouds
461,Flin Flon,54.7682,-101.865,62.44,77,75,5.64,CA,2021-06-06 16:36:41,broken clouds
462,Veraval,20.9,70.3667,85.35,70,7,12.24,IN,2021-06-06 16:36:42,clear sky
463,Kushiro,42.975,144.3747,55.35,85,95,6.98,JP,2021-06-06 16:36:43,overcast clouds
464,Aleksandrovsk-Sakhalinskiy,50.8975,142.1561,43.65,98,100,2.86,RU,2021-06-06 16:33:17,overcast clouds
465,Henties Bay,-22.116,14.2845,72.55,38,0,8.34,NA,2021-06-06 16:36:47,clear sky
466,Berdigestyakh,62.0989,126.6992,52.34,51,100,6.15,RU,2021-06-06 16:36:48,overcast clouds
467,Fontaine,45.1984,5.6827,71.11,76,96,4.0,FR,2021-06-06 16:36:49,overcast clouds
468,Palauig,15.435,119.9045,81.55,83,100,6.98,PH,2021-06-06 16:36:51,overcast clouds
469,Mtwara,-10.2667,40.1833,76.33,73,20,11.5,TZ,2021-06-06 16:36:52,few clouds
470,Panguna,-6.3164,155.4848,67.15,96,15,2.15,PG,2021-06-06 16:36:53,light rain
471,Gravdal,68.1214,13.5031,67.89,34,0,8.05,NO,2021-06-06 16:36:55,clear sky
472,Samarinda,-0.5,117.15,73.74,99,98,0.98,ID,2021-06-06 16:36:56,overcast clouds
473,Hovd,48.0056,91.6419,49.24,36,10,6.73,MN,2021-06-06 16:36:57,clear sky
474,Dongtai,32.8523,120.3095,74.55,53,0,7.94,CN,2021-06-06 16:36:59,light rain
475,Carutapera,-1.195,-46.02,84.15,71,23,3.67,BR,2021-06-06 16:37:00,few clouds
476,Comodoro Rivadavia,-45.8667,-67.5,51.66,43,0,19.57,AR,2021-06-06 16:35:17,clear sky
477,Arlit,18.7369,7.3853,107.89,7,89,20.47,NE,2021-06-06 16:37:03,overcast clouds
478,Sorong,-0.8833,131.25,78.8,86,100,7.67,ID,2021-06-06 16:37:04,overcast clouds
479,Mponela,-13.5319,33.7401,59.77,65,100,9.71,MW,2021-06-06 16:37:05,overcast clouds
480,Karlovac,45.4872,15.5478,71.53,79,82,5.01,HR,2021-06-06 16:37:07,broken clouds
481,Chatra,24.2167,84.8667,84.18,43,7,5.3,IN,2021-06-06 16:37:09,clear sky
482,Komsomolskiy,40.4272,71.7189,90.32,23,56,11.5,UZ,2021-06-06 16:37:11,broken clouds
483,Gisborne,-38.6533,178.0042,57.58,80,100,10.6,NZ,2021-06-06 16:37:12,moderate rain
484,High Level,58.5169,-117.136,53.71,82,75,8.23,CA,2021-06-06 16:37:13,broken clouds
485,Altamira,-3.2033,-52.2064,89.69,62,40,5.75,BR,2021-06-06 16:37:14,scattered clouds
486,Slyudyanka,51.6594,103.7061,45.61,90,100,4.97,RU,2021-06-06 16:37:16,overcast clouds
487,Mandalgovi,45.7625,106.2708,51.55,71,77,20.45,MN,2021-06-06 16:37:17,broken clouds
488,Redondela,42.2834,-8.6096,83.61,61,0,12.66,ES,2021-06-06 16:37:18,clear sky
489,Binika,21.0333,83.8,90.9,45,64,7.83,IN,2021-06-06 16:37:20,moderate rain
490,Miramar,25.9873,-80.2323,89.02,71,40,14.97,US,2021-06-06 16:37:22,scattered clouds
491,Porto Santo,33.072,-16.3415,70.18,60,40,19.57,PT,2021-06-06 16:37:24,scattered clouds
492,Xiongzhou,25.1167,114.3,69.01,70,17,1.05,CN,2021-06-06 16:37:25,few clouds
493,Hit,33.6416,42.8251,91.13,15,0,13.53,IQ,2021-06-06 16:37:26,clear sky
494,Phek,25.6667,94.5,59.27,97,99,0.69,IN,2021-06-06 16:37:27,overcast clouds
495,Sola,-13.8833,167.55,79.43,77,34,13.82,VU,2021-06-06 16:37:29,scattered clouds
496,Caravelas,-17.7125,-39.2481,80.15,64,17,7.36,BR,2021-06-06 16:37:30,few clouds
497,Itabera,-23.8619,-49.1372,80.06,37,93,4.68,BR,2021-06-06 16:37:32,overcast clouds
498,Skelleftea,64.7507,20.9528,71.01,44,0,1.99,SE,2021-06-06 16:37:33,clear sky
499,Yakeshi,49.2833,120.7333,50.76,64,0,5.28,CN,2021-06-06 16:37:35,clear sky
500,Sabzevar,36.2126,57.6819,93.15,18,1,4.79,IR,2021-06-06 16:37:37,clear sky
501,Zarasai,55.7333,26.25,67.32,63,93,6.82,LT,2021-06-06 16:37:38,overcast clouds
502,Port Moresby,-9.4431,147.1797,76.42,88,75,11.5,PG,2021-06-06 16:37:39,broken clouds
503,Kiruna,67.8557,20.2251,65.32,18,0,0.0,SE,2021-06-06 16:34:53,clear sky
504,Luwuk,-0.9516,122.7875,76.19,70,91,4.14,ID,2021-06-06 16:37:42,overcast clouds
505,Vostok,46.4856,135.8833,44.37,95,88,3.4,RU,2021-06-06 16:37:43,overcast clouds
506,San Juan,-31.5375,-68.5364,70.74,40,2,9.98,AR,2021-06-06 16:37:44,clear sky
507,Cordoba,-31.4135,-64.1811,66.42,31,0,4.0,AR,2021-06-06 16:36:27,clear sky
508,Desaguadero,-16.5656,-69.0417,51.3,30,81,6.15,PE,2021-06-06 16:37:48,broken clouds
509,Tete,-16.1564,33.5867,75.29,46,75,10.36,MZ,2021-06-06 16:37:50,broken clouds
510,Swan Hill,-35.3378,143.5544,50.94,75,100,9.95,AU,2021-06-06 16:37:51,overcast clouds
511,Ust-Karsk,52.7011,118.8077,57.0,70,38,4.16,RU,2021-06-06 16:37:53,scattered clouds
512,Guerrero Negro,27.9769,-114.0611,69.87,59,70,7.07,MX,2021-06-06 16:37:54,broken clouds
513,Thinadhoo,0.5333,72.9333,83.37,73,29,11.63,MV,2021-06-06 16:37:55,scattered clouds
514,Salalah,17.0151,54.0924,84.29,89,40,8.05,OM,2021-06-06 16:37:57,scattered clouds
515,Aguimes,27.9054,-15.4461,70.66,56,20,31.07,ES,2021-06-06 16:37:58,few clouds
516,Nizhniy Chir,48.3597,43.0865,63.95,76,68,9.53,RU,2021-06-06 16:37:59,broken clouds
517,Jinxiang,27.4327,120.6062,67.03,79,0,4.52,CN,2021-06-06 16:38:01,clear sky
518,Leh,34.1667,77.5833,54.46,24,2,6.11,IN,2021-06-06 16:38:02,clear sky
519,Weihai,37.5017,122.1136,67.68,63,80,3.11,CN,2021-06-06 16:38:03,light rain
520,Tarangnan,11.9009,124.7459,79.21,82,100,4.27,PH,2021-06-06 16:38:04,overcast clouds
521,Sinaloa,25.0,-107.5,91.11,50,0,4.0,MX,2021-06-06 16:38:06,clear sky
522,Padang,-0.9492,100.3543,76.71,83,86,4.32,ID,2021-06-06 16:33:27,overcast clouds
523,Honningsvag,70.9821,25.9704,42.55,70,40,12.66,NO,2021-06-06 16:38:08,scattered clouds
524,Ayia Galini,35.1,24.6833,79.75,80,3,3.96,GR,2021-06-06 16:38:09,clear sky
525,Bandarbeyla,9.4942,50.8122,81.09,79,3,29.26,SO,2021-06-06 16:38:11,clear sky
526,La Peca,-5.6111,-78.435,77.58,69,91,3.47,PE,2021-06-06 16:38:12,light rain
527,Salinas,36.6777,-121.6555,64.65,75,90,5.75,US,2021-06-06 16:34:52,overcast clouds
528,Ouadda,8.0777,22.4007,76.68,67,83,3.42,CF,2021-06-06 16:38:14,broken clouds
529,Sakaiminato,35.55,133.2333,67.98,88,75,1.14,JP,2021-06-06 16:38:16,broken clouds
530,Santiago Del Estero,-27.7951,-64.2615,58.82,62,100,3.83,AR,2021-06-06 16:34:27,overcast clouds
531,Poronaysk,49.2167,143.1167,46.54,83,65,7.63,RU,2021-06-06 16:38:18,broken clouds
532,Tzaneen,-23.8332,30.1635,50.22,92,99,1.41,ZA,2021-06-06 16:38:19,overcast clouds
533,Sholapur,17.6833,75.9167,81.79,69,44,12.77,IN,2021-06-06 16:38:21,scattered clouds
534,Beloha,-25.1667,45.05,63.63,69,78,14.7,MG,2021-06-06 16:38:22,broken clouds
535,Jian,27.1172,114.9793,71.91,72,88,1.63,CN,2021-06-06 16:38:23,overcast clouds
536,Nenagh,52.8619,-8.1967,64.02,71,99,4.34,IE,2021-06-06 16:38:25,overcast clouds
537,Gambela,8.25,34.5833,75.72,85,67,0.11,ET,2021-06-06 16:38:26,light rain
538,Biskamzha,53.4497,89.5272,45.14,99,100,3.15,RU,2021-06-06 16:38:28,overcast clouds
539,Beira,-19.8436,34.8389,73.49,68,40,13.8,MZ,2021-06-06 16:38:29,light rain
540,Sijunjung,-0.6876,100.9537,72.18,85,83,2.46,ID,2021-06-06 16:38:31,broken clouds
541,Caucaia,-3.7361,-38.6531,87.75,69,40,7.99,BR,2021-06-06 16:38:33,scattered clouds
542,Pisco,-13.7,-76.2167,64.02,88,90,4.61,PE,2021-06-06 16:34:43,overcast clouds
543,Yatou,37.15,122.3833,66.88,69,71,4.45,CN,2021-06-06 16:38:35,broken clouds
544,Lavrentiya,65.5833,-171.0,33.17,84,96,8.32,RU,2021-06-06 16:38:36,overcast clouds
545,Bartica,6.4,-58.6167,86.32,82,63,3.47,GY,2021-06-06 16:38:38,broken clouds
546,Smithers,54.7804,-127.1743,48.52,71,75,0.0,CA,2021-06-06 16:33:57,broken clouds
547,Alta Floresta,-9.8756,-56.0861,89.94,42,49,4.88,BR,2021-06-06 16:38:40,scattered clouds
548,Manta,-0.95,-80.7333,82.18,69,40,9.22,EC,2021-06-06 16:38:41,scattered clouds
549,Santa Cruz,-17.8,-63.1667,75.25,78,75,3.44,BO,2021-06-06 16:35:12,broken clouds
550,Esfahan,32.6572,51.6776,87.44,8,3,18.59,IR,2021-06-06 16:36:53,clear sky
551,Umm Bab,25.2142,50.8072,96.48,64,0,12.19,QA,2021-06-06 16:38:45,clear sky
552,Doha,25.2867,51.5333,97.11,79,20,4.61,QA,2021-06-06 16:38:46,haze
553,Tiarei,-17.5333,-149.3333,75.22,77,5,12.37,PF,2021-06-06 16:38:48,clear sky
554,Korsakovo,53.2677,37.3569,57.83,93,90,7.74,RU,2021-06-06 16:38:49,overcast clouds
555,Nyimba,-14.5566,30.8149,65.19,48,82,8.99,ZM,2021-06-06 16:38:50,broken clouds
556,Taperoa,-7.2075,-36.8267,84.9,44,46,17.09,BR,2021-06-06 16:38:52,scattered clouds
557,Malpe,13.35,74.7167,81.7,81,94,0.6,IN,2021-06-06 16:38:53,overcast clouds
558,Neder Vindinge,55.0321,11.8836,71.98,65,50,3.8,DK,2021-06-06 16:38:55,scattered clouds
559,Yinchuan,38.4681,106.2731,74.08,38,95,11.79,CN,2021-06-06 16:37:11,overcast clouds
560,Selma,36.5708,-119.6121,89.1,18,11,4.18,US,2021-06-06 16:38:58,few clouds
561,Skibbereen,51.55,-9.2667,60.6,67,70,8.1,IE,2021-06-06 16:38:59,broken clouds
562,Juba,4.8517,31.5825,75.65,77,61,4.16,SS,2021-06-06 16:39:00,light rain
563,Gimli,50.6336,-96.9907,72.21,73,55,10.36,CA,2021-06-06 16:39:02,broken clouds
564,Beidao,34.5686,105.8933,67.01,56,98,2.71,CN,2021-06-06 16:39:03,overcast clouds
565,Kangaatsiaq,68.3065,-53.4641,37.17,94,100,8.63,GL,2021-06-06 16:39:04,overcast clouds
566,Pandan,14.0453,124.1694,79.86,83,100,3.96,PH,2021-06-06 16:39:06,overcast clouds
567,Coihaique,-45.5752,-72.0662,45.21,76,75,8.05,CL,2021-06-06 16:39:07,broken clouds
568,Karratha,-20.7377,116.8463,75.11,69,100,6.62,AU,2021-06-06 16:39:08,overcast clouds
569,Christchurch,-43.5333,172.6333,48.99,97,90,1.99,NZ,2021-06-06 16:38:16,overcast clouds
570,Puerto Ayacucho,5.6639,-67.6236,86.76,69,93,1.45,VE,2021-06-06 16:39:11,overcast clouds
571,Margate,51.3813,1.3862,69.96,81,45,7.76,GB,2021-06-06 16:35:17,scattered clouds
572,Manggar,-2.8833,108.2667,82.22,74,97,8.03,ID,2021-06-06 16:39:14,light rain
573,Batemans Bay,-35.7167,150.1833,50.92,84,22,4.36,AU,2021-06-06 16:39:16,few clouds
574,Dwarka,22.2394,68.9678,85.3,69,0,14.38,IN,2021-06-06 16:39:17,clear sky
575,Athabasca,54.7169,-113.2854,61.21,47,99,15.68,CA,2021-06-06 16:39:18,overcast clouds
576,Vadso,70.0744,29.7487,46.56,53,20,11.5,NO,2021-06-06 16:39:20,few clouds
577,Mugur-Aksy,50.35,90.5,38.97,77,72,5.28,RU,2021-06-06 16:39:21,broken clouds
578,Lecce,40.2167,18.1667,78.69,59,40,11.5,IT,2021-06-06 16:39:22,light rain
579,Pervomayskoye,43.919,46.7102,68.09,54,98,7.85,RU,2021-06-06 16:39:24,overcast clouds
580,Marau,-28.4492,-52.2,64.76,89,100,2.55,BR,2021-06-06 16:39:25,heavy intensity rain
581,Batagay-Alyta,67.8006,130.4114,40.24,70,4,4.97,RU,2021-06-06 16:39:26,clear sky
582,Los Llanos De Aridane,28.6585,-17.9182,68.13,74,40,11.16,ES,2021-06-06 16:39:29,scattered clouds
583,Buritizeiro,-17.3511,-44.9622,86.14,36,94,2.17,BR,2021-06-06 16:39:30,overcast clouds
584,Kismayo,-0.3582,42.5454,78.55,79,72,15.99,SO,2021-06-06 16:39:32,broken clouds
585,San Cristobal,7.7669,-72.225,71.78,96,100,3.53,VE,2021-06-06 16:39:34,overcast clouds
586,Busembatia,0.7697,33.6131,66.04,93,88,4.88,UG,2021-06-06 16:39:35,overcast clouds
587,Kruisfontein,-34.0033,24.7314,64.89,20,0,6.55,ZA,2021-06-06 16:39:37,clear sky
588,Novikovo,51.1537,37.8879,60.06,85,57,4.12,RU,2021-06-06 16:39:38,broken clouds
589,Silvania,-16.6589,-48.6081,82.36,37,100,5.14,BR,2021-06-06 16:39:39,overcast clouds
590,Cherskiy,68.75,161.3,59.67,50,50,14.74,RU,2021-06-06 16:39:41,scattered clouds
591,Mandapam,9.2833,79.1167,84.24,79,90,22.12,IN,2021-06-06 16:39:42,overcast clouds
592,Antofagasta,-23.65,-70.4,61.88,70,2,8.5,CL,2021-06-06 16:39:34,clear sky
593,Anna,51.4842,40.4299,59.31,88,48,6.62,RU,2021-06-06 16:39:44,moderate rain
594,Maracana,-0.7667,-47.45,86.11,66,28,3.31,BR,2021-06-06 16:39:46,scattered clouds
595,Aswan,24.0934,32.907,93.7,11,0,12.57,EG,2021-06-06 16:39:47,clear sky
596,Haines Junction,60.7522,-137.5108,49.95,81,84,2.3,CA,2021-06-06 16:39:48,light rain
597,Kununurra,-15.7667,128.7333,58.98,77,8,1.14,AU,2021-06-06 16:38:30,clear sky
598,Aljezur,37.3191,-8.8033,71.35,58,1,13.29,PT,2021-06-06 16:39:51,clear sky
599,Inuvik,68.3499,-133.7218,34.66,81,75,6.91,CA,2021-06-06 16:39:52,broken clouds
600,Narsaq,60.9167,-46.05,55.62,64,100,3.33,GL,2021-06-06 16:39:53,overcast clouds
601,Green River,41.5286,-109.4662,75.18,23,53,15.14,US,2021-06-06 16:39:55,broken clouds
602,Chapais,49.7834,-74.8492,67.78,38,45,7.92,CA,2021-06-06 16:39:56,scattered clouds
603,Novobirilyussy,56.9514,90.6661,55.04,93,96,14.76,RU,2021-06-06 16:39:57,light rain
604,Tecpan,14.7623,-90.9947,68.76,67,90,3.15,GT,2021-06-06 16:39:59,overcast clouds
605,Albion,42.2431,-84.753,86.9,39,1,10.89,US,2021-06-06 16:40:00,clear sky
606,Huarmey,-10.0681,-78.1522,69.1,72,71,11.9,PE,2021-06-06 16:40:01,broken clouds
607,Nongan,44.382,125.1685,59.41,67,21,3.04,CN,2021-06-06 16:40:06,few clouds
608,Yokadouma,3.5167,15.05,72.48,92,83,2.59,CM,2021-06-06 16:40:07,broken clouds
609,Shumyachi,53.8583,32.4242,61.5,90,97,6.11,RU,2021-06-06 16:40:08,light rain
610,Marck,50.949,1.9433,68.5,80,42,3.42,FR,2021-06-06 16:40:10,scattered clouds
611,Maarianhamina,60.0973,19.9348,71.46,40,0,6.91,AX,2021-06-06 16:40:11,clear sky
612,Florianopolis,-27.6146,-48.5012,72.25,71,75,4.0,BR,2021-06-06 16:40:12,broken clouds
613,Belaya Gora,68.5333,146.4167,37.45,93,100,8.34,RU,2021-06-06 16:40:14,overcast clouds
614,Itarema,-2.9248,-39.9167,85.23,65,27,10.36,BR,2021-06-06 16:40:15,scattered clouds
615,Marzuq,14.4,46.4667,87.69,29,7,5.3,YE,2021-06-06 16:40:16,clear sky
616,Anaconda,46.1285,-112.9423,57.78,27,79,8.21,US,2021-06-06 16:40:18,broken clouds
617,Tvoroyri,61.5556,-6.8111,49.39,94,100,21.23,FO,2021-06-06 16:40:19,overcast clouds
618,Kanniyakumari,8.0833,77.5667,81.55,83,97,16.73,IN,2021-06-06 16:39:22,overcast clouds
619,Socorro,31.6546,-106.3033,92.1,12,1,25.19,US,2021-06-06 16:40:21,haze
620,Macklin,52.3334,-109.9348,64.74,48,82,15.64,CA,2021-06-06 16:40:16,broken clouds
621,Bagdarin,54.4333,113.6,57.45,83,100,2.84,RU,2021-06-06 16:40:24,overcast clouds
622,Barpali,21.2,83.5833,91.76,43,80,6.82,IN,2021-06-06 16:40:25,broken clouds
623,Cluses,46.0625,6.575,75.97,92,90,4.27,FR,2021-06-06 16:40:27,overcast clouds
624,Monrovia,6.3005,-10.7969,80.37,78,83,5.35,LR,2021-06-06 16:40:28,moderate rain
625,Sa Kaeo,13.75,102.3333,77.22,85,100,4.23,TH,2021-06-06 16:40:29,overcast clouds
626,Baijiantan,45.6333,85.1833,69.84,23,17,8.95,CN,2021-06-06 16:40:31,few clouds
627,Leopold,-38.1833,144.4667,55.72,80,40,15.61,AU,2021-06-06 16:40:32,scattered clouds
628,Kieta,-6.2167,155.6333,78.06,86,23,5.17,PG,2021-06-06 16:40:33,light rain
629,Le Port,-20.9373,55.2919,73.4,78,70,7.85,RE,2021-06-06 16:40:35,broken clouds
630,Sabla,12.7525,4.7077,98.56,29,70,5.19,NG,2021-06-06 16:40:36,broken clouds
631,Roald,62.5833,6.1333,60.17,88,75,11.5,NO,2021-06-06 16:40:37,broken clouds
632,Cesinovo,41.8714,22.2892,67.26,92,93,4.54,MK,2021-06-06 16:40:39,overcast clouds
633,De Aar,-30.6497,24.0123,50.25,26,0,9.08,ZA,2021-06-06 16:40:40,clear sky
634,Weener,53.1667,7.35,63.07,91,92,1.01,DE,2021-06-06 16:40:41,overcast clouds
635,Montepuez,-13.1256,38.9997,66.49,60,50,6.71,MZ,2021-06-06 16:40:43,scattered clouds
636,Dzaoudzi,-12.7887,45.2699,78.69,73,0,16.11,YT,2021-06-06 16:40:45,clear sky
637,Caceres,39.522,-6.3748,87.8,18,0,5.91,ES,2021-06-06 16:40:46,clear sky
638,Kaseda,31.4167,130.3167,68.77,86,100,6.06,JP,2021-06-06 16:40:48,overcast clouds
639,Agaro,7.85,36.65,62.38,93,81,2.68,ET,2021-06-06 16:40:49,light rain
640,Paamiut,61.994,-49.6678,37.47,98,100,1.61,GL,2021-06-06 16:40:50,light rain
641,Yagodnoye,62.55,149.6667,45.27,73,96,6.53,RU,2021-06-06 16:40:52,overcast clouds
642,Korla,41.7597,86.1469,75.27,37,80,17.16,CN,2021-06-06 16:40:53,broken clouds
643,Zharkent,44.1628,80.0,71.37,36,1,2.13,KZ,2021-06-06 16:40:54,clear sky
644,Balabac,7.9868,117.0645,83.07,77,100,8.46,PH,2021-06-06 16:40:57,overcast clouds
645,Emerald,-23.5333,148.1667,50.14,53,0,9.22,AU,2021-06-06 16:40:58,clear sky
646,Durango,24.8333,-104.8333,77.85,23,0,2.37,MX,2021-06-06 16:36:59,clear sky
647,Tabou,4.423,-7.3528,81.46,77,79,9.4,CI,2021-06-06 16:41:01,light rain
648,Palmas,-10.2128,-48.3603,87.67,45,20,9.22,BR,2021-06-06 16:41:02,few clouds
649,Vilhena,-12.7406,-60.1458,84.42,58,40,8.05,BR,2021-06-06 16:41:03,scattered clouds
650,Bonfim,3.0833,-59.95,87.66,59,37,4.32,BR,2021-06-06 16:41:05,scattered clouds
651,Villagomez,5.2737,-74.1961,68.38,89,88,2.17,CO,2021-06-06 16:41:06,overcast clouds
652,Linkoping,58.4109,15.6216,77.38,35,75,10.36,SE,2021-06-06 16:41:07,broken clouds
653,Worthington,40.0931,-83.018,87.19,52,1,1.01,US,2021-06-06 16:41:01,clear sky
654,Ossora,59.2353,163.0719,39.07,96,100,7.74,RU,2021-06-06 16:41:10,overcast clouds
655,Hervey Bay,-25.2986,152.8535,57.04,83,2,3.0,AU,2021-06-06 16:41:11,clear sky
656,Chino Valley,34.7575,-112.4538,84.76,13,1,1.99,US,2021-06-06 16:41:12,clear sky
657,Jiaojiang,28.6803,121.4428,68.95,85,0,3.36,CN,2021-06-06 16:41:14,light rain
658,Manicore,-5.8092,-61.3003,93.63,43,97,3.2,BR,2021-06-06 16:41:15,overcast clouds
659,Kodinar,20.7903,70.7031,85.1,70,24,11.43,IN,2021-06-06 16:41:16,few clouds
660,Manokwari,-0.8667,134.0833,78.24,81,90,3.38,ID,2021-06-06 16:41:18,overcast clouds
661,Ginda,30.6945,78.4932,62.94,69,90,5.23,IN,2021-06-06 16:41:19,overcast clouds
662,Malaya Serdoba,52.4661,44.9512,59.9,84,63,5.35,RU,2021-06-06 16:41:20,broken clouds
663,Mansar,21.4,79.25,83.93,41,29,4.54,IN,2021-06-06 16:41:22,scattered clouds
664,Natori,38.1691,140.8823,67.05,69,95,4.23,JP,2021-06-06 16:41:23,overcast clouds
665,Lerwick,60.1545,-1.1494,55.4,76,34,9.22,GB,2021-06-06 16:41:24,scattered clouds
666,Vao,-22.6667,167.4833,71.01,60,80,15.57,NC,2021-06-06 16:41:26,broken clouds
667,Hunchun,42.8675,130.3581,56.48,82,49,2.15,CN,2021-06-06 16:41:27,scattered clouds
668,Bundaberg,-24.85,152.35,57.22,92,3,1.99,AU,2021-06-06 16:41:28,clear sky
669,Minot,48.2325,-101.2963,72.12,60,75,10.36,US,2021-06-06 16:41:30,broken clouds
670,Najran,17.4924,44.1277,93.85,10,3,6.53,SA,2021-06-06 16:41:31,clear sky
671,Voh,-20.9667,164.7,65.21,70,95,5.19,NC,2021-06-06 16:41:32,overcast clouds
672,Balykshi,47.0667,51.8667,78.8,22,40,4.47,KZ,2021-06-06 16:41:35,scattered clouds
673,Sacele,45.6174,25.6943,63.7,60,21,2.26,RO,2021-06-06 16:41:36,few clouds
674,Camapua,-19.5314,-54.0439,91.17,23,51,7.05,BR,2021-06-06 16:41:37,broken clouds
675,Samara,53.0,50.0,71.74,82,67,6.58,RU,2021-06-06 16:41:39,broken clouds
676,Eyl,7.9803,49.8164,81.23,79,0,19.19,SO,2021-06-06 16:41:40,clear sky
677,Bend,44.0582,-121.3153,50.32,57,1,0.0,US,2021-06-06 16:41:41,clear sky
678,Tromso,69.6496,18.957,68.65,47,0,17.27,NO,2021-06-06 16:41:44,clear sky
679,Palaikastron,35.2,26.25,70.68,64,0,9.82,GR,2021-06-06 16:41:45,clear sky
680,Nhulunbuy,-12.2333,136.7667,77.61,78,75,8.05,AU,2021-06-06 16:41:47,broken clouds
681,Isiro,2.7739,27.616,68.72,97,81,3.06,CD,2021-06-06 16:41:48,broken clouds
682,Lokoja,7.8024,6.743,84.04,72,90,7.2,NG,2021-06-06 16:41:49,light rain
683,Alyangula,-13.8483,136.4192,73.27,83,90,10.69,AU,2021-06-06 16:41:50,overcast clouds
684,Komsomolets,53.7453,62.0708,63.18,38,55,3.62,KZ,2021-06-06 16:41:52,broken clouds
685,Okha,53.5739,142.9478,35.13,98,100,14.0,RU,2021-06-06 16:40:55,overcast clouds
686,Ponta Delgada,37.7333,-25.6667,70.52,73,40,16.11,PT,2021-06-06 16:41:54,scattered clouds
687,Auki,-8.7676,160.7034,77.02,86,3,3.27,SB,2021-06-06 16:41:55,clear sky
688,Novyy Urengoy,66.0833,76.6333,39.0,55,92,11.99,RU,2021-06-06 16:41:57,overcast clouds
689,Ewa Beach,21.3156,-158.0072,75.15,75,1,11.99,US,2021-06-06 16:41:58,clear sky
690,Tshikapa,-6.4167,20.8,81.72,39,43,1.83,CD,2021-06-06 16:41:59,scattered clouds
691,Poya,-21.35,165.15,67.28,66,75,6.51,NC,2021-06-06 16:42:01,broken clouds
692,Itoman,26.1247,127.6694,79.57,92,75,4.61,JP,2021-06-06 16:42:02,moderate rain
693,Sakakah,29.9697,40.2064,98.17,11,2,7.54,SA,2021-06-06 16:42:03,clear sky
694,Cumanayagua,22.1494,-80.2022,86.41,56,71,10.56,CU,2021-06-06 16:42:05,broken clouds
695,Russell,32.3502,-85.1999,83.91,65,75,3.04,US,2021-06-06 16:42:06,broken clouds
696,Santa Vitoria Do Palmar,-33.5189,-53.3681,58.48,61,100,6.98,BR,2021-06-06 16:42:07,overcast clouds
697,Katsuura,35.1333,140.3,70.11,90,100,8.03,JP,2021-06-06 16:42:09,overcast clouds
698,Karlshamn,56.1706,14.8619,75.69,55,14,8.46,SE,2021-06-06 16:42:10,few clouds
699,Kikwit,-5.041,18.8162,82.8,37,29,3.42,CD,2021-06-06 16:42:13,scattered clouds
700,Varadero,23.1536,-81.2514,86.76,66,99,17.56,CU,2021-06-06 16:42:14,overcast clouds
701,Zapolyarnyy,69.4154,30.8136,43.88,53,42,8.63,RU,2021-06-06 16:42:15,scattered clouds
702,Acapulco,16.8634,-99.8901,87.62,62,40,7.34,MX,2021-06-06 16:42:02,scattered clouds
703,Marsh Harbour,26.5412,-77.0636,80.62,74,93,16.69,BS,2021-06-06 16:42:18,overcast clouds
704,Kropotkin,45.4375,40.5756,60.51,87,77,7.36,RU,2021-06-06 16:42:19,light rain
705,Okhotsk,59.3833,143.3,41.83,88,100,3.49,RU,2021-06-06 16:42:20,overcast clouds
706,Atar,20.5169,-13.0499,107.64,11,6,18.79,MR,2021-06-06 16:42:22,clear sky
707,Hurghada,27.2574,33.8129,87.84,27,0,23.02,EG,2021-06-06 16:38:11,clear sky
708,Saint-Joseph,-21.3667,55.6167,71.98,85,76,11.65,RE,2021-06-06 16:42:24,light rain
709,Caidian,30.5833,114.0333,82.53,64,97,5.88,CN,2021-06-06 16:42:25,overcast clouds
710,Moose Factory,51.2585,-80.6094,68.0,56,1,5.75,CA,2021-06-06 16:42:28,clear sky
711,Srednekolymsk,67.45,153.6833,59.13,50,42,7.54,RU,2021-06-06 16:42:29,scattered clouds
712,Sheltozero,61.3667,35.3667,60.17,67,93,10.0,RU,2021-06-06 16:42:30,overcast clouds
713,Kutum,14.2,24.6667,88.32,13,7,9.62,SD,2021-06-06 16:42:32,clear sky
714,Berlevag,70.8578,29.0864,42.8,70,7,6.91,NO,2021-06-06 16:42:33,clear sky
715,Maunabo,18.0072,-65.8993,84.52,79,100,13.98,PR,2021-06-06 16:42:34,overcast clouds
716,Show Low,34.2542,-110.0298,81.28,19,1,21.85,US,2021-06-06 16:42:36,clear sky
717,Formosa,-26.1775,-58.1781,67.98,94,90,6.91,AR,2021-06-06 16:42:37,overcast clouds
718,Pimentel,-6.8367,-79.9342,70.09,84,90,1.01,PE,2021-06-06 16:42:38,overcast clouds
719,Pontian Kecil,1.4801,103.3899,84.38,79,81,5.95,MY,2021-06-06 16:42:40,broken clouds
720,Pakxan,18.3778,103.6601,76.87,95,100,1.97,LA,2021-06-06 16:42:41,overcast clouds
721,Chiplun,17.5333,73.5167,79.77,86,78,2.15,IN,2021-06-06 16:42:42,broken clouds
722,Prado,-17.3411,-39.2208,79.72,64,13,8.32,BR,2021-06-06 16:42:44,few clouds
723,Harper,4.375,-7.7169,80.98,81,83,10.38,LR,2021-06-06 16:42:45,light rain
724,Shumskiy,54.8318,99.1328,43.72,90,68,3.67,RU,2021-06-06 16:42:47,broken clouds
725,Segou,13.4317,-6.2157,105.3,17,35,9.89,ML,2021-06-06 16:42:48,scattered clouds
726,Bilma,18.6853,12.9164,102.29,11,84,6.69,NE,2021-06-06 16:42:49,broken clouds
727,Deep River,46.1001,-77.4995,87.44,47,50,7.25,CA,2021-06-06 16:42:51,scattered clouds
